{
    "direction 1": [
        {
            "Distance": 0,
            "BusStopCode": "58009",
            "Longitude": 103.81941391689068,
            "Latitude": 1.44748179252514,
            "RoadName": "Sembawang Vista",
            "Description": "Sembawang Int (First Stop)"
        },
        {
            "Distance": 0.4,
            "BusStopCode": "58291",
            "Longitude": 103.8199449173096,
            "Latitude": 1.44579319988216,
            "RoadName": "Sembawang Dr",
            "Description": "Blk 317"
        },
        {
            "Distance": 0.7,
            "BusStopCode": "58379",
            "Longitude": 103.81900511225648,
            "Latitude": 1.44428574142951,
            "RoadName": "Sembawang Cres",
            "Description": "Opp Blk 325"
        },
        {
            "Distance": 1,
            "BusStopCode": "58289",
            "Longitude": 103.81627162679553,
            "Latitude": 1.44485960840447,
            "RoadName": "Sembawang Cres",
            "Description": "Opp Sembawang Sec Sch"
        },
        {
            "Distance": 1.3,
            "BusStopCode": "58279",
            "Longitude": 103.81460487842601,
            "Latitude": 1.44671025812826,
            "RoadName": "Sembawang Cres",
            "Description": "Opp Blk 336A CP"
        },
        {
            "Distance": 1.9,
            "BusStopCode": "58329",
            "Longitude": 103.81655964918443,
            "Latitude": 1.45050186875947,
            "RoadName": "Admiralty Dr",
            "Description": "Blk 474"
        },
        {
            "Distance": 2.3,
            "BusStopCode": "58349",
            "Longitude": 103.81642343207659,
            "Latitude": 1.45273139537549,
            "RoadName": "Sembawang Dr",
            "Description": "Blk 478"
        },
        {
            "Distance": 2.7,
            "BusStopCode": "58419",
            "Longitude": 103.81583789207467,
            "Latitude": 1.4546446175566,
            "RoadName": "Admiralty Link",
            "Description": "Blk 482A CP"
        },
        {
            "Distance": 3,
            "BusStopCode": "58409",
            "Longitude": 103.81810058815044,
            "Latitude": 1.4561083849161,
            "RoadName": "Admiralty Link",
            "Description": "Blk 491"
        },
        {
            "Distance": 3.7,
            "BusStopCode": "58129",
            "Longitude": 103.8198821920911,
            "Latitude": 1.45284216119403,
            "RoadName": "Canberra Rd",
            "Description": "Blk 508 CP"
        },
        {
            "Distance": 3.9,
            "BusStopCode": "58119",
            "Longitude": 103.82102323159111,
            "Latitude": 1.45099925490468,
            "RoadName": "Canberra Rd",
            "Description": "Blk 502A"
        },
        {
            "Distance": 4.3,
            "BusStopCode": "58211",
            "Longitude": 103.81979401898032,
            "Latitude": 1.44926202582359,
            "RoadName": "Sembawang Way",
            "Description": "Sembawang Stn"
        },
        {
            "Distance": 4.6,
            "BusStopCode": "58251",
            "Longitude": 103.81895207486829,
            "Latitude": 1.44803148822713,
            "RoadName": "Sembawang Dr",
            "Description": "Sun Plaza"
        },
        {
            "Distance": 5,
            "BusStopCode": "58009",
            "Longitude": 103.81941391689068,
            "Latitude": 1.44748179252514,
            "RoadName": "Sembawang Vista",
            "Description": "Sembawang Int (Last Stop)"
        }
    ]
}